City_ID,City,Lat,Lng,Max Temp,Humidity,Cloudiness,Wind Speed,Country,Date
0,dikson,73.5069,80.5464,1.1299999999999955,97,100,7.11,RU,1685202343
1,martinsicuro,42.8811,13.9145,23.82000000000005,75,5,4.97,IT,1685202344
2,pathein,16.7833,94.7333,28.060000000000002,80,76,3.52,MM,1685202345
3,busselton,-33.65,115.3333,14.25,73,47,0.47,AU,1685202347
4,salalah,17.0151,54.0924,30.05000000000001,79,40,5.14,OM,1685202348
5,qaanaaq,77.484,-69.3632,-5.5499999999999545,74,94,1.42,GL,1685202348
6,ilulissat,69.2167,-51.1,1.0100000000000477,93,75,4.63,GL,1685202349
7,shache,38.4167,77.2406,22.060000000000002,24,100,4.85,CN,1685202351
8,hilo,19.7297,-155.09,19.850000000000023,92,100,2.57,US,1685202183
9,torbay,47.6666,-52.7314,8.82000000000005,80,75,8.75,CA,1685202353
10,vaini,-21.2,-175.2,21.090000000000032,94,20,2.06,TO,1685202354
11,otta,61.7712,9.5353,13.450000000000045,68,100,4.22,NO,1685202356
12,guinticgan,11.5641,123.1236,27.27000000000004,81,100,4.04,PH,1685202357
13,piney green,34.716,-77.3202,17.170000000000016,95,100,8.23,US,1685202358
14,sitka,57.0531,-135.33,8.939999999999998,71,100,5.66,US,1685202359
15,bluff,-46.6,168.3333,7.890000000000043,80,2,4.46,NZ,1685202360
16,provideniya,64.3833,-173.3,2.990000000000009,95,100,3.8,RU,1685202362
17,nicholasville,37.8806,-84.573,21.980000000000018,47,0,3.6,US,1685202363
18,rocha,-34.4833,-54.3333,16.82000000000005,41,87,7.85,UY,1685202364
19,khatanga,71.9667,102.5,6.270000000000039,79,70,6.79,RU,1685202365
20,new norfolk,-42.7826,147.0587,12.730000000000018,69,97,0.45,AU,1685202366
21,arraial do cabo,-22.9661,-42.0278,26.980000000000018,54,0,8.23,BR,1685202367
22,ammon,43.4696,-111.9666,14.180000000000007,76,75,1.54,US,1685202368
23,shelopugino,51.6514,117.5599,2.840000000000032,86,38,1.14,RU,1685202369
24,bethel,41.3712,-73.414,24.939999999999998,40,0,0.89,US,1685202370
25,bosaso,11.2842,49.1816,31.480000000000018,64,95,2.81,SO,1685202371
26,atambua,-9.1061,124.8925,20.07000000000005,83,59,2.56,ID,1685202372
27,alice springs,-23.7,133.8833,3.75,70,13,3.47,AU,1685202175
28,ocosingo,17.0667,-92.25,26.129999999999995,44,96,1.45,MX,1685202374
29,launceston,-41.45,147.1667,11.800000000000011,88,75,7.2,AU,1685202375
30,ahipara,-35.1667,173.1667,16.57000000000005,87,81,6.49,NZ,1685202376
31,punta arenas,-53.15,-70.9167,5.060000000000002,75,75,12.86,CL,1685202324
32,hermanus,-34.4187,19.2345,13.220000000000027,60,5,4.04,ZA,1685202380
33,paamiut,61.994,-49.6678,1.5100000000000477,82,100,3.54,GL,1685202381
34,rikitea,-23.1203,-134.9692,23.710000000000036,80,24,6.68,PF,1685202382
35,ushuaia,-54.8,-68.3,5.7900000000000205,75,75,14.92,AR,1685202383
36,samastipur,25.85,85.7833,33.30000000000001,33,1,0.47,IN,1685202384
37,bandarbeyla,9.4942,50.8122,28.189999999999998,77,50,10.2,SO,1685202385
38,yichang,30.7144,111.2847,23.939999999999998,94,99,0.62,CN,1685202387
39,tessalit,20.1986,1.0114,38.24000000000001,12,7,8.64,ML,1685202388
40,vostok,46.4856,135.8833,10.550000000000011,92,100,2.55,RU,1685202389
41,guadalupe y calvo,26.1,-106.9667,22.200000000000045,23,77,2.58,MX,1685202390
42,ulladulla,-35.35,150.4667,6.430000000000007,77,0,2.47,AU,1685202391
43,butaritari,3.0707,172.7902,27.870000000000005,77,72,4.45,KI,1685202392
44,high level,58.5169,-117.136,17.060000000000002,55,0,0.0,CA,1685202234
45,saskylakh,71.9167,114.0833,5.53000000000003,77,100,7.76,RU,1685202395
46,albany,42.6001,-73.9662,23.100000000000023,37,1,0.89,US,1685202252
47,yanam,16.7333,82.2167,29.510000000000048,75,40,0.6,IN,1685202398
48,hobart,-42.8794,147.3294,12.920000000000016,74,100,3.6,AU,1685202399
49,portland,45.5234,-122.6762,17.180000000000007,76,100,2.06,US,1685202363
50,ati,13.2154,18.3353,41.77000000000004,17,10,3.65,TD,1685202401
51,ancud,-41.8697,-73.8203,7.210000000000036,69,1,3.22,CL,1685202402
52,hambantota,6.1241,81.1185,29.189999999999998,84,20,4.12,LK,1685202403
53,bonavista,48.6499,-53.1147,5.010000000000048,92,100,6.43,CA,1685202404
54,port alfred,-33.5906,26.891,15.100000000000023,67,0,4.17,ZA,1685202405
55,khash,28.2211,61.2158,27.480000000000018,23,80,3.52,IR,1685202406
56,chuy,-33.6971,-53.4616,18.010000000000048,49,5,6.19,UY,1685202407
57,lieksa,63.3167,30.0167,11.520000000000039,41,15,2.2,FI,1685202408
58,chunskiy,56.0815,99.6342,7.3799999999999955,90,100,1.63,RU,1685202409
59,saldanha,-33.0117,17.9442,16.03000000000003,63,0,4.86,ZA,1685202372
60,puerto ayora,-0.7393,-90.3518,28.980000000000018,93,65,2.68,EC,1685202411
61,korla,41.7597,86.1469,22.82000000000005,25,87,0.77,CN,1685202412
62,arlit,18.7369,7.3853,43.51000000000005,7,7,2.66,NE,1685202413
63,tasiilaq,65.6145,-37.6368,5.090000000000032,81,4,2.57,GL,1685202414
64,mar del plata,-38.0023,-57.5575,12.830000000000041,70,20,6.69,AR,1685202415
65,te anau,-45.4167,167.7167,7.720000000000027,91,62,0.6,NZ,1685202416
66,san patricio,28.017,-97.5169,30.920000000000016,51,69,4.26,US,1685202342
67,mataura,-46.1927,168.8643,4.590000000000032,91,1,1.61,NZ,1685202418
68,georgetown,5.4112,100.3354,28.960000000000036,76,20,0.51,MY,1685202315
69,kerema,-7.9631,145.7785,25.07000000000005,91,100,1.26,PG,1685202420
70,san onofre,9.7359,-75.5263,28.870000000000005,74,99,0.63,CO,1685202421
71,port-gentil,-0.7193,8.7815,28.980000000000018,79,20,7.2,GA,1685202422
72,hithadhoo,-0.6,73.0833,28.54000000000002,75,100,3.98,MV,1685202424
73,jamestown,42.097,-79.2353,21.680000000000007,35,0,2.06,US,1685202381
74,upernavik,72.7868,-56.1549,-5.589999999999975,92,100,5.12,GL,1685202426
75,santa cruz,-17.8,-63.1667,25.0,82,100,4.32,BO,1685202256
76,nikolskoye,59.7035,30.7861,12.939999999999998,49,84,3.75,RU,1685202428
77,vargashi,55.3556,65.8467,19.210000000000036,52,34,3.4,RU,1685202429
78,betsiamites,48.9413,-68.646,17.220000000000027,55,5,4.74,CA,1685202430
79,clyde river,70.4692,-68.5914,-3.8700000000000045,63,40,2.06,CA,1685202431
80,vilhena,-12.7406,-60.1458,29.120000000000005,61,0,4.63,BR,1685202272
81,kulhudhuffushi,6.6221,73.07,29.370000000000005,74,11,6.01,MV,1685202433
82,yellowknife,62.456,-114.3525,8.29000000000002,81,100,5.14,CA,1685202434
83,kapaa,22.0752,-159.319,23.180000000000007,77,20,4.63,US,1685202350
84,bambous virieux,-20.3428,57.7575,24.140000000000043,83,75,6.17,MU,1685202436
85,plainview,40.7765,-73.4673,24.890000000000043,37,0,3.6,US,1685202437
86,kieta,-6.2167,155.6333,25.930000000000007,87,57,0.65,PG,1685202438
87,barrow,71.2906,-156.7887,-1.9899999999999523,74,0,6.69,US,1685202439
88,labuhan,-6.8844,112.2051,24.54000000000002,77,47,4.13,ID,1685202440
89,ushibuka,32.1906,130.0228,19.260000000000048,81,89,3.18,JP,1685202441
90,turukhansk,65.8167,87.9833,11.480000000000018,65,11,1.99,RU,1685202442
91,atuona,-9.8,-139.0333,26.930000000000007,77,77,7.75,PF,1685202334
92,baykit,61.67,96.37,4.210000000000036,81,43,2.26,RU,1685202444
93,sanwer,22.9833,75.8333,32.360000000000014,29,41,5.11,IN,1685202445
94,shimoda,34.6667,138.95,16.170000000000016,80,26,1.88,JP,1685202447
95,cidreira,-30.1811,-50.2056,21.430000000000007,86,100,4.82,BR,1685202448
96,guerrero negro,27.9769,-114.0611,17.57000000000005,69,20,8.53,MX,1685202449
97,cayeli,41.0923,40.7292,19.07000000000005,89,69,0.66,TR,1685202450
98,thompson,55.7435,-97.8558,10.090000000000032,81,100,0.0,CA,1685202451
99,katsuura,35.1333,140.3,18.0,74,88,4.38,JP,1685202452
100,villablino,42.9393,-6.3194,21.879999999999995,62,99,2.61,ES,1685202453
101,colquechaca,-18.6667,-66.0167,7.340000000000032,26,99,1.88,BO,1685202454
102,achacachi,-16.05,-68.6833,11.460000000000036,58,100,3.21,BO,1685202455
103,cortez,37.3489,-108.5859,18.910000000000025,30,0,2.57,US,1685202456
104,sungairaya,0.7,108.9,26.80000000000001,87,100,2.0,ID,1685202457
105,mwinilunga,-11.7358,24.4293,20.220000000000027,34,37,2.16,ZM,1685202458
106,acapulco,16.8634,-99.8901,30.900000000000034,55,75,3.09,MX,1685202361
107,la palma,33.8464,-118.0467,18.340000000000032,78,100,1.54,US,1685202460
108,taltal,-25.4,-70.4833,19.939999999999998,64,12,1.39,CL,1685202461
109,college,64.8569,-147.8028,10.5,77,40,2.57,US,1685202462
110,talara,-4.5772,-81.2719,26.420000000000016,73,40,8.23,PE,1685202463
111,macenta,8.5435,-9.471,32.07000000000005,43,100,2.21,GN,1685202464
112,tulun,54.5611,100.5792,5.220000000000027,74,56,1.73,RU,1685202465
113,santiago del estero,-27.7951,-64.2615,16.0,63,100,8.24,AR,1685202466
114,chara,56.9064,118.2631,4.160000000000025,52,69,2.2,RU,1685202467
115,gat,31.61,34.7642,31.55000000000001,29,100,2.88,IL,1685202468
116,paragominas,-2.9667,-47.4833,28.970000000000027,73,23,2.1,BR,1685202254
117,comodoro rivadavia,-45.8667,-67.5,7.920000000000016,34,0,7.2,AR,1685202470
118,makakilo city,21.3469,-158.0858,23.180000000000007,80,0,2.06,US,1685202471
119,alfred,42.2542,-77.7906,21.52000000000004,37,3,1.34,US,1685202472
120,flin flon,54.7682,-101.865,8.910000000000025,93,100,1.54,CA,1685202473
121,mahanoro,-19.9,48.8,22.30000000000001,87,63,2.85,MG,1685202474
122,codrington,-38.2667,141.9667,11.910000000000025,91,100,6.77,AU,1685202475
123,fonte boa,-2.4959,-66.2662,28.629999999999995,84,85,0.38,BR,1685202476
124,abu dhabi,24.4667,54.3667,37.01000000000005,23,0,4.63,AE,1685202477
125,ocampo,21.65,-101.5,21.340000000000032,42,29,1.78,MX,1685202478
126,qom,34.6401,50.8764,31.120000000000005,13,31,6.32,IR,1685202479
127,ahuimanu,21.4447,-157.8378,23.840000000000032,81,20,2.57,US,1685202480
128,lavrentiya,65.5833,-171.0,0.5800000000000409,98,100,0.72,RU,1685202481
129,svetlogorsk,52.6333,29.7333,16.32000000000005,58,45,5.01,BY,1685202482
130,hofn,64.2539,-15.2082,8.010000000000048,36,20,13.38,IS,1685202483
131,touros,-5.1989,-35.4608,29.939999999999998,64,70,6.97,BR,1685202485
132,kalmunai,7.4167,81.8167,28.720000000000027,78,6,1.1,LK,1685202486
133,mobaye,4.319,21.1786,22.810000000000002,94,99,2.61,CF,1685202487
134,jalu,29.0331,21.5482,25.379999999999995,41,88,9.99,LY,1685202490
135,filingue,14.3521,3.3168,42.82000000000005,5,78,5.17,NE,1685202491
136,vila franca do campo,37.7167,-25.4333,18.230000000000018,66,29,6.0,PT,1685202492
137,fare,-16.7,-151.0167,27.79000000000002,69,65,10.07,PF,1685202493
138,langarud,37.197,50.1535,25.03000000000003,81,46,1.85,IR,1685202496
139,terrace bay,48.7834,-87.1,10.120000000000005,67,17,3.01,CA,1685202497
140,juliaca,-15.5,-70.1333,11.990000000000009,40,75,1.14,PE,1685202498
141,penzance,50.1186,-5.5371,18.620000000000005,59,20,5.66,GB,1685202499
142,umm lajj,25.0213,37.2685,29.170000000000016,64,60,5.37,SA,1685202500
143,ugoofaaru,5.6667,73.0,29.680000000000007,72,4,5.59,MV,1685202502
144,cape town,-33.9258,18.4232,17.430000000000007,52,0,8.23,ZA,1685202301
145,san quintin,30.4833,-115.95,17.04000000000002,69,79,5.77,MX,1685202505
146,akyab,20.15,92.9,28.960000000000036,79,2,2.48,MM,1685202506
147,kununurra,-15.7667,128.7333,11.990000000000009,66,2,0.0,AU,1685202507
148,jesup,31.6074,-81.8854,15.960000000000036,82,100,3.09,US,1685202508
149,namibe,-15.1961,12.1522,22.33000000000004,65,7,4.48,AO,1685202509
150,rasskazovo,52.6714,41.9033,15.78000000000003,91,100,3.87,RU,1685202510
151,port elizabeth,-33.918,25.5701,19.160000000000025,45,0,5.14,ZA,1685202511
152,berlevag,70.8578,29.0864,5.890000000000043,60,100,9.77,NO,1685202512
153,inirida,3.8653,-67.9239,25.470000000000027,92,98,1.04,CO,1685202513
154,port augusta,-32.5,137.7667,12.370000000000005,70,97,3.18,AU,1685202457
155,chokurdakh,70.6333,147.9167,0.3900000000000432,98,100,5.48,RU,1685202516
156,arraias,-12.9288,-46.9437,30.670000000000016,32,44,2.86,BR,1685202517
157,kaitangata,-46.2817,169.8464,6.2000000000000455,87,0,1.96,NZ,1685202518
158,antsohihy,-14.8796,47.9875,26.700000000000045,54,0,5.06,MG,1685202519
159,tuatapere,-46.1333,167.6833,7.470000000000027,88,17,2.7,NZ,1685202520
160,luderitz,-26.6481,15.1594,14.160000000000025,72,0,4.26,NA,1685202521
161,bredasdorp,-34.5322,20.0403,11.640000000000043,63,1,2.39,ZA,1685202301
162,banjar,-8.19,114.9675,23.02000000000004,88,31,3.17,ID,1685202523
163,sola,-13.8833,167.55,21.370000000000005,94,20,0.0,VU,1685202524
164,buraydah,26.326,43.975,38.25,12,28,3.94,SA,1685202410
165,kisangani,0.5167,25.2,26.400000000000034,72,64,0.39,CD,1685202525
166,lebu,-37.6167,-73.65,10.090000000000032,60,16,4.86,CL,1685202526
167,andenes,69.3143,16.1194,4.400000000000034,81,100,10.29,NO,1685202527
168,east london,-33.0153,27.9116,18.52000000000004,72,0,3.09,ZA,1685202528
169,kintampo,8.0563,-1.7306,32.200000000000045,53,100,2.4,GH,1685202529
170,limon,10.0,-83.0333,31.700000000000045,70,0,2.06,CR,1685202530
171,kuvandyk,51.4781,57.3552,21.74000000000001,44,72,4.25,RU,1685202531
172,saint-philippe,-21.3585,55.7679,23.77000000000004,86,76,6.76,RE,1685202532
173,carnarvon,-24.8667,113.6333,20.939999999999998,36,100,6.79,AU,1685202533
174,esso,55.9333,158.7,-0.6099999999999568,90,42,1.03,RU,1685202534
175,nuuk,64.1835,-51.7216,1.3400000000000318,100,100,14.92,GL,1685202535
176,hua hin,12.5707,99.9588,28.930000000000007,64,10,3.81,TH,1685202536
177,ponta do sol,32.6667,-17.1,22.350000000000023,76,58,2.97,PT,1685202537
178,imeni poliny osipenko,52.4201,136.4853,2.2000000000000455,87,65,5.27,RU,1685202538
179,flinders,-34.5833,150.8552,8.54000000000002,69,0,0.89,AU,1685202539
180,lebowakgomo,-24.2,29.5,17.5,68,100,3.21,ZA,1685202540
181,roura,4.7263,-52.3274,30.950000000000045,66,40,3.09,GF,1685202541
182,avarua,-21.2078,-159.775,25.03000000000003,83,100,5.66,CK,1685202316
183,kirakira,-10.4544,161.9205,25.689999999999998,87,66,3.39,SB,1685202325
184,yangambi,0.8102,24.4336,23.970000000000027,89,99,0.6,CD,1685202544
185,abeche,13.8292,20.8324,36.610000000000014,27,43,11.14,TD,1685202545
186,chifeng,42.2683,118.9636,17.05000000000001,66,90,2.69,CN,1685202546
187,cabo san lucas,22.8909,-109.9124,27.560000000000002,57,20,3.09,MX,1685202265
188,alofi,-19.0595,-169.9187,23.939999999999998,94,27,4.12,NU,1685202548
189,byron bay,-28.65,153.6167,9.840000000000032,89,8,3.58,AU,1685202020
190,olafsvik,64.8945,-23.7142,6.439999999999998,73,22,7.92,IS,1685202550
191,belyy yar,53.6039,91.3903,9.939999999999998,57,0,3.0,RU,1685202551
192,bonthe,7.5264,-12.505,30.83000000000004,67,88,5.57,SL,1685202552
193,ambon,-3.6954,128.1814,28.129999999999995,86,20,3.6,ID,1685202553
194,esperance,-33.8667,121.9,13.430000000000007,77,58,6.23,AU,1685202554
195,son la,21.3167,103.9,22.950000000000045,90,100,1.73,VN,1685202555
196,tiksi,71.6872,128.8694,2.3799999999999955,98,100,7.65,RU,1685202557
197,manadhoo,5.7667,73.3833,29.57000000000005,74,14,5.76,MV,1685202558
198,zvishavane,-20.3267,30.0665,19.129999999999995,48,53,3.35,ZW,1685202559
199,mitsamiouli,-11.3847,43.2844,28.160000000000025,65,20,4.12,KM,1685202561
200,faanui,-16.4833,-151.75,27.640000000000043,75,99,9.63,PF,1685202563
201,sterling,39.0062,-77.4286,23.970000000000027,38,40,4.63,US,1685202564
202,panjab,34.388,67.0233,15.310000000000002,22,100,1.97,AF,1685202565
203,iqaluit,63.7506,-68.5145,-4.149999999999977,68,75,1.54,CA,1685202301
204,roald,62.5833,6.1333,11.670000000000016,87,75,7.2,NO,1685202567
205,itarema,-2.9248,-39.9167,30.33000000000004,64,53,6.55,BR,1685202568
206,caravelas,-17.7125,-39.2481,26.060000000000002,66,40,3.73,BR,1685202569
207,beroroha,-21.6667,45.1667,23.590000000000032,50,19,1.63,MG,1685202570
208,segezha,63.7415,34.3222,12.160000000000025,36,81,0.7,RU,1685202571
209,kahului,20.8947,-156.47,22.129999999999995,79,0,1.54,US,1685202407
210,valparaiso,-33.0393,-71.6273,18.129999999999995,59,0,2.57,CL,1685202410
211,nelson bay,-32.7167,152.15,10.560000000000002,76,39,5.36,AU,1685202574
212,manzhouli,49.6,117.4333,7.53000000000003,56,2,3.53,CN,1685202575
213,buala,-8.145,159.5921,26.420000000000016,83,72,1.93,SB,1685202576
214,khani,41.9563,42.9566,15.760000000000048,96,69,0.71,GE,1685202577
215,lakes entrance,-37.8811,147.981,8.420000000000016,72,75,4.41,AU,1685202578
216,moose factory,51.2585,-80.6094,25.0,36,0,7.72,CA,1685202579
217,yantikovo,55.8216,47.9104,24.400000000000034,83,71,3.1,RU,1685202580
218,constitucion,-35.3333,-72.4167,12.510000000000048,46,64,3.29,CL,1685202581
219,saint-pierre,-21.3393,55.4781,23.82000000000005,88,100,8.75,RE,1685202582
220,nabire,-3.3667,135.4833,24.54000000000002,93,98,1.9,ID,1685202583
221,salta,-24.7859,-65.4117,18.650000000000034,78,75,1.03,AR,1685202584
222,airai,-8.9266,125.4092,11.980000000000018,87,24,1.27,TL,1685202586
223,ayan,56.45,138.1667,1.9300000000000068,99,100,5.28,RU,1685202587
224,khalkhal,37.6189,48.5258,16.670000000000016,53,63,1.32,IR,1685202588
225,djibo,14.1022,-1.6306,43.25,7,53,7.68,BF,1685202589
226,severodvinsk,64.5635,39.8302,8.210000000000036,57,7,2.62,RU,1685202590
227,villa sandino,12.0483,-84.9936,28.650000000000034,67,100,2.35,NI,1685202591
228,alpena,45.0617,-83.4327,22.180000000000007,42,0,1.34,US,1685202592
229,hasaki,35.7333,140.8333,18.450000000000045,71,97,5.06,JP,1685202344
230,acarau,-2.8856,-40.12,30.350000000000023,63,65,6.11,BR,1685202594
231,tautira,-17.7333,-149.15,26.600000000000023,72,59,9.15,PF,1685202595
232,kavieng,-2.5744,150.7967,27.700000000000045,78,56,3.83,PG,1685202598
233,puerto carreno,6.189,-67.4859,23.99000000000001,100,75,1.54,CO,1685202599
234,itoman,26.1247,127.6694,24.210000000000036,100,100,6.69,JP,1685202600
235,cherskiy,68.75,161.3,1.2900000000000205,72,1,1.02,RU,1685202602
236,ponta delgada,37.7333,-25.6667,18.400000000000034,68,40,6.69,PT,1685202603
237,kitama,-10.7167,39.7333,22.0,69,60,2.67,TZ,1685202604
238,thaba nchu,-29.2093,26.839,10.82000000000005,31,0,2.19,ZA,1685202606
239,araguaina,-7.1911,-48.2072,32.19,46,7,3.69,BR,1685202582
240,karpathos,35.507,27.2132,23.980000000000018,57,20,8.23,GR,1685202608
241,kualakapuas,-3.0091,114.3876,23.890000000000043,97,90,1.34,ID,1685202609
242,sambava,-14.2667,50.1667,25.140000000000043,77,23,5.71,MG,1685202610
243,yeppoon,-23.1333,150.7333,7.8799999999999955,67,0,2.22,AU,1685202612
244,tuktoyaktuk,69.4541,-133.0374,4.0,75,75,3.09,CA,1685202613
245,riyadh,24.6877,46.7219,39.08000000000004,13,19,3.21,SA,1685202399
246,solnechnyy,50.7214,136.6319,8.650000000000034,84,100,0.99,RU,1685202615
247,east angus,45.4834,-71.6658,21.120000000000005,34,20,4.63,CA,1685202616
248,san cristobal,7.7669,-72.225,25.100000000000023,45,56,1.92,VE,1685202547
249,dakar,14.6937,-17.4441,36.49000000000001,69,0,6.17,SN,1685202047
250,sorland,67.667,12.6934,7.920000000000016,96,100,15.98,NO,1685202619
251,yantal,56.8471,105.2542,7.32000000000005,66,100,1.36,RU,1685202620
252,corner brook,48.9667,-57.9484,7.090000000000032,96,100,4.86,CA,1685202379
253,curup,-3.4667,102.5333,20.79000000000002,99,98,0.71,ID,1685202622
254,petropavlovsk-kamchatskiy,53.0452,158.6483,4.330000000000041,81,0,1.0,RU,1685202623
255,kokologo,12.1897,-1.8856,40.920000000000016,13,84,3.78,BF,1685202624
256,honningsvag,70.9821,25.9704,3.8600000000000136,70,100,4.63,NO,1685202625
257,pietarsaari,63.65,22.6833,12.07000000000005,50,74,0.89,FI,1685202626
258,pisco,-13.7,-76.2167,21.120000000000005,73,0,3.09,PE,1685202354
259,muroto,33.2833,134.15,19.850000000000023,77,54,2.21,JP,1685202628
260,jos,9.9167,8.9,27.410000000000025,53,100,3.48,NG,1685202629
261,skibbereen,51.55,-9.2667,17.840000000000032,73,71,1.01,IE,1685202630
262,ust-omchug,61.15,149.6333,0.75,77,6,2.08,RU,1685202631
263,henties bay,-22.116,14.2845,15.240000000000009,77,3,2.49,NA,1685202633
264,lagoa,39.05,-27.9833,16.629999999999995,76,89,8.41,PT,1685202634
265,collie,-33.3667,116.15,7.980000000000018,95,0,0.16,AU,1685202635
266,hailar,49.2,119.7,7.020000000000039,58,3,3.34,CN,1685202636
267,tual,-5.6667,132.75,27.470000000000027,76,75,8.65,ID,1685202637
268,mahebourg,-20.4081,57.7,24.160000000000025,83,75,6.17,MU,1685202638
269,namatanai,-3.6667,152.4333,26.220000000000027,83,28,1.69,PG,1685202639
270,najran,17.4924,44.1277,21.360000000000014,40,92,3.62,SA,1685202641
271,pitimbu,-7.4706,-34.8086,29.33000000000004,66,87,4.47,BR,1685202642
272,quatre cocos,-20.2078,57.7625,24.060000000000002,81,44,6.88,MU,1685202643
273,shingu,33.7333,135.9833,17.480000000000018,84,73,0.8,JP,1685202645
274,biak,-0.9131,122.8766,24.220000000000027,85,72,1.11,ID,1685202647
275,ellisras,-23.6649,27.7443,21.04000000000002,51,100,4.99,ZA,1685202648
276,kodiak,57.79,-152.4072,5.730000000000018,100,100,4.12,US,1685202649
277,ndele,8.4109,20.6473,21.600000000000023,91,88,5.79,CF,1685202650
278,sayansk,54.1088,102.1648,5.110000000000014,79,100,1.36,RU,1685202651
279,ketchikan,55.3422,-131.6461,10.260000000000048,76,75,0.0,US,1685202652
280,richards bay,-28.783,32.0377,19.54000000000002,80,59,4.95,ZA,1685202653
281,aleksandrovskiy zavod,50.9237,117.9374,2.8000000000000114,89,14,2.4,RU,1685202657
282,kvarkeno,52.0833,59.725,22.890000000000043,38,99,2.27,RU,1685202658
283,disna,55.568,28.1971,14.740000000000009,43,12,4.02,BY,1685202659
284,codajas,-3.8367,-62.0569,30.710000000000036,66,100,2.32,BR,1685202660
285,sim,54.993,57.6982,21.730000000000018,59,98,1.09,RU,1685202661
286,kudat,6.8837,116.8477,26.960000000000036,89,20,1.54,MY,1685202662
287,broome,42.2506,-75.833,22.57000000000005,39,0,3.13,US,1685202663
288,birjand,32.8663,59.2211,26.260000000000048,18,40,2.06,IR,1685202664
289,ribeira grande,38.5167,-28.7,19.220000000000027,59,75,8.49,PT,1685202665
290,sistranda,63.7256,8.834,10.980000000000018,94,100,4.46,NO,1685202666
291,ormara,25.2088,64.6357,28.840000000000032,83,53,7.55,PK,1685202667
292,longyearbyen,78.2186,15.6401,-1.089999999999975,51,20,1.54,SJ,1685202487
293,kargasok,59.0556,80.8572,11.590000000000032,38,16,1.5,RU,1685202669
294,lorengau,-2.0226,147.2712,27.79000000000002,81,81,4.3,PG,1685202670
295,saquarema,-22.92,-42.5103,27.08000000000004,56,4,2.68,BR,1685202671
296,nkhata bay,-11.6066,34.2907,22.980000000000018,58,5,0.66,MW,1685202672
297,muros,42.7762,-9.0603,20.610000000000014,67,94,3.82,ES,1685202673
298,loudeac,48.1783,-2.7543,19.82000000000005,65,38,4.96,FR,1685202674
299,norman wells,65.282,-126.8329,8.020000000000039,100,75,1.03,CA,1685202675
300,mgandu,-5.95,34.1333,21.05000000000001,46,26,2.81,TZ,1685202676
301,hutchinson,38.0608,-97.9298,24.860000000000014,54,68,0.89,US,1685202677
302,quang ngai,15.1167,108.8,25.74000000000001,89,24,1.44,VN,1685202678
303,erenhot,43.6475,111.9767,18.54000000000002,33,100,8.43,CN,1685202679
304,marang,5.2056,103.2059,27.950000000000045,81,100,1.08,MY,1685202680
305,sembe,1.6481,14.5806,26.200000000000045,87,100,1.49,CG,1685202681
306,youkounkoun,12.5333,-13.1333,40.80000000000001,21,99,2.71,GN,1685202682
307,erzin,36.9559,36.2,27.470000000000027,33,90,2.94,TR,1685202683
308,bengkulu,-3.8004,102.2655,24.99000000000001,89,64,2.03,ID,1685202684
309,tabou,4.423,-7.3528,29.120000000000005,74,96,5.01,CI,1685202685
310,le vauclin,14.5452,-60.8388,31.03000000000003,66,40,7.72,MQ,1685202686
311,walvis bay,-22.9575,14.5053,17.53000000000003,67,0,4.12,NA,1685202687
312,bayji,34.9311,43.487,34.5,13,9,3.59,IQ,1685202688
313,sibut,5.718,19.0739,30.55000000000001,56,65,3.32,CF,1685202689
314,wanaka,-44.7,169.15,6.730000000000018,83,50,0.45,NZ,1685202691
315,xianyang,34.3378,108.7026,17.58000000000004,100,100,1.0,CN,1685202693
316,igarka,67.4667,86.5833,8.840000000000032,83,5,4.53,RU,1685202694
317,anori,-3.7728,-61.6442,30.220000000000027,69,85,2.22,BR,1685202695
318,trairi,-3.2778,-39.2689,29.78000000000003,70,70,5.4,BR,1685202696
319,sawakin,19.1059,37.3321,32.08000000000004,63,0,2.32,SD,1685202698
320,mengcheng,33.2579,116.5655,23.5,93,75,1.93,CN,1685202699
321,eberbach,49.4694,8.9928,25.03000000000003,44,0,3.98,DE,1685202700
322,sao filipe,14.8961,-24.4956,24.840000000000032,76,100,2.19,CV,1685202701
323,booue,-0.0921,11.9385,27.210000000000036,88,100,1.22,GA,1685202702
324,ilhabela,-23.7781,-45.3581,26.870000000000005,55,46,1.71,BR,1685202703
325,krasnoselkup,65.7,82.4667,15.0,38,3,3.72,RU,1685202704
326,key west,24.5557,-81.7826,29.0,76,75,4.63,US,1685202600
327,perivolion,39.4206,20.0147,26.75,79,77,7.43,GR,1685202706
328,lompoc,34.6391,-120.4579,15.010000000000048,84,0,2.57,US,1685202707
329,ierapetra,35.01,25.7353,23.410000000000025,50,63,6.71,GR,1685202708
330,victoria point,-27.5833,153.3,12.010000000000048,94,0,2.35,AU,1685202711
331,okhotsk,59.3833,143.3,6.210000000000036,61,100,2.13,RU,1685202712
332,betanzos,43.2804,-8.2147,24.510000000000048,60,20,4.12,ES,1685202713
333,westport,41.1415,-73.3579,25.370000000000005,42,0,2.57,US,1685202714
334,dicabisagan,17.0818,122.4157,24.80000000000001,84,74,3.7,PH,1685202716
335,port hedland,-20.3167,118.5667,19.03000000000003,32,37,3.09,AU,1685202717
336,waipawa,-41.4122,175.5153,10.270000000000039,84,62,2.58,NZ,1685202718
337,emerald,-23.5333,148.1667,8.520000000000039,46,0,5.01,AU,1685202719
338,vangaindrano,-23.35,47.6,21.07000000000005,89,52,2.23,MG,1685202720
339,verkhnyaya inta,65.9811,60.3094,12.310000000000002,85,100,1.55,RU,1685202721
340,callaway,30.153,-85.5699,25.510000000000048,53,0,5.66,US,1685202722
341,nanortalik,60.1432,-45.2371,1.4500000000000455,85,100,2.96,GL,1685202723
342,kwinana,-32.25,115.7667,11.010000000000048,84,0,3.52,AU,1685202725
343,pangkalanbuun,-2.6833,111.6167,24.010000000000048,98,82,0.71,ID,1685202726
344,pijino,9.3291,-74.453,28.950000000000045,74,100,1.02,CO,1685202727
345,diebougou,10.9667,-3.25,41.24000000000001,16,92,1.11,BF,1685202729
346,kruisfontein,-34.0033,24.7314,13.82000000000005,37,3,1.02,ZA,1685202730
347,vanimo,-2.6741,141.3028,26.170000000000016,88,100,1.28,PG,1685202731
348,aksarka,66.5606,67.7975,14.620000000000005,91,100,5.56,RU,1685202732
349,bossier city,32.516,-93.7321,27.430000000000007,57,0,2.06,US,1685202733
350,tbilisskaya,45.3633,40.19,20.32000000000005,82,36,2.11,RU,1685202734
351,bowen,-20.0167,148.2333,15.900000000000034,77,2,2.93,AU,1685202736
352,bilibino,68.0546,166.4372,3.150000000000034,63,9,0.48,RU,1685202739
353,pevek,69.7008,170.3133,-0.8899999999999864,84,100,3.68,RU,1685202740
354,komsomolskiy,40.4272,71.7189,24.400000000000034,22,1,7.2,UZ,1685202741
355,gamba,-2.65,10.0,26.189999999999998,79,100,4.4,GA,1685202742
356,alto araguaia,-17.3147,-53.2153,28.760000000000048,39,9,3.16,BR,1685202743
357,maniitsoq,65.4167,-52.9,-0.7699999999999818,88,100,6.0,GL,1685202744
358,lao cai,22.4833,103.95,25.840000000000032,96,97,0.72,VN,1685202573
359,verkhoyansk,67.5447,133.385,5.460000000000036,53,100,0.18,RU,1685202746
360,buchanan,5.8808,-10.0467,29.27000000000004,75,94,3.93,LR,1685202747
361,krasnovishersk,60.4078,57.082,19.840000000000032,62,100,1.09,RU,1685202748
362,bubaque,11.2833,-15.8333,28.660000000000025,72,87,5.91,GW,1685202749
363,insar,53.8653,44.3738,17.410000000000025,94,100,3.73,RU,1685202750
364,boditi,6.9667,37.8667,15.03000000000003,92,99,1.97,ET,1685202751
365,leuwiliang,-6.5745,106.6344,26.730000000000018,90,70,1.62,ID,1685202752
366,davila,18.4726,120.5763,25.99000000000001,74,4,6.43,PH,1685202753
367,kiunga,-6.1219,141.2906,22.650000000000034,99,100,0.34,PG,1685202754
368,saint george,37.1041,-113.5841,23.02000000000004,23,0,2.06,US,1685202755
369,honiara,-9.4333,159.95,25.110000000000014,90,92,2.04,SB,1685202756
370,piribebuy,-25.4833,-57.05,24.27000000000004,81,100,1.24,PY,1685202757
371,chabahar,25.2919,60.643,30.890000000000043,73,0,4.17,IR,1685202759
372,divnomorskoye,44.5011,38.1353,18.189999999999998,87,0,2.45,RU,1685202626
373,amga,60.8953,131.9608,2.5,78,28,1.27,RU,1685202761
374,tazovskiy,67.4667,78.7,13.390000000000043,54,12,6.98,RU,1685202763
375,castro,-24.7911,-50.0119,23.350000000000023,51,18,3.62,BR,1685202764
376,danjiangkou,32.5428,111.5086,19.670000000000016,95,100,1.78,CN,1685202765
377,sangar,63.9242,127.4739,3.230000000000018,61,1,1.84,RU,1685202766
378,ilabaya,-17.4208,-70.5133,24.08000000000004,39,100,2.53,PE,1685202767
379,newport,51.5877,-2.9984,21.410000000000025,61,24,3.5,GB,1685202635
380,garden city,42.3256,-83.331,23.910000000000025,34,75,2.57,US,1685202722
381,talnakh,69.4865,88.3972,5.670000000000016,99,84,4.49,RU,1685202770
382,matara,5.9485,80.5353,27.410000000000025,83,78,5.53,LK,1685202771
383,parvatsar,26.8833,74.7667,33.98000000000002,32,8,2.96,IN,1685202772
384,nizhneangarsk,55.7833,109.55,3.75,67,100,1.1,RU,1685202773
385,puerto narino,-3.7703,-70.3831,25.07000000000005,93,99,1.13,CO,1685202774
386,ocos,14.5094,-92.1933,26.960000000000036,73,100,1.51,GT,1685202777
387,lerwick,60.1545,-1.1494,11.0,73,27,12.4,GB,1685202740
388,falkensee,52.5667,13.0833,22.840000000000032,34,2,2.68,DE,1685202780
389,pacific grove,36.6177,-121.9166,13.340000000000032,87,100,2.06,US,1685202781
390,marawi,7.9986,124.2928,21.010000000000048,91,100,1.22,PH,1685202782
391,gigmoto,13.7796,124.39,27.120000000000005,75,100,5.51,PH,1685202788
392,neiafu,-18.65,-173.9833,24.379999999999995,94,40,0.0,TO,1685202789
393,mutis,6.2262,-77.4044,29.200000000000045,71,38,1.33,CO,1685202791
394,aviles,43.5547,-5.9248,22.99000000000001,81,0,2.68,ES,1685202792
395,coahuayana,18.7333,-103.6833,31.5,51,3,2.29,MX,1685202793
396,mehamn,71.0357,27.8492,4.970000000000027,65,75,7.2,NO,1685202794
397,coihaique,-45.5752,-72.0662,3.9700000000000273,60,20,1.54,CL,1685202795
398,menongue,-14.6585,17.691,24.650000000000034,36,85,1.41,AO,1685202797
399,liku,-0.7275,119.8922,24.74000000000001,93,76,0.69,ID,1685202798
400,berdigestyakh,62.0989,126.6992,2.840000000000032,87,74,1.99,RU,1685202799
401,mut,36.6439,33.4389,28.07000000000005,30,53,4.26,TR,1685202800
402,fairbanks,64.8378,-147.7164,10.680000000000007,79,0,2.57,US,1685202801
403,padang,-0.9492,100.3543,26.03000000000003,87,71,1.56,ID,1685202725
404,hamilton,39.1834,-84.5333,23.29000000000002,48,0,3.6,US,1685202508
405,chapais,49.7834,-74.8492,15.879999999999995,56,91,2.94,CA,1685202803
406,westerland,54.9079,8.3033,16.680000000000007,67,0,3.09,DE,1685202804
407,san lawrenz,36.0553,14.204,24.670000000000016,85,0,4.85,MT,1685202805
408,harper,4.375,-7.7169,28.99000000000001,73,95,4.67,LR,1685202806
409,sumbe,-11.2061,13.8437,25.52000000000004,77,8,3.99,AO,1685202808
410,troitskoye,52.9821,84.6757,7.510000000000048,80,65,3.01,RU,1685202809
411,raudeberg,61.9875,5.1352,9.370000000000005,1,100,13.47,NO,1685202810
412,zabid,14.1951,43.3152,34.39000000000004,46,53,2.08,YE,1685202811
413,kharp,66.8014,65.8081,14.060000000000002,64,100,6.35,RU,1685202812
414,prieska,-29.6641,22.7474,13.78000000000003,27,0,2.14,ZA,1685202813
415,goure,13.9835,10.2704,42.30000000000001,13,94,2.41,NE,1685202814
416,slavutych,51.5196,30.7343,19.27000000000004,50,4,5.73,UA,1685202815
417,aktash,50.3,87.7333,-0.08999999999997499,86,96,1.12,RU,1685202816
418,bilma,18.6853,12.9164,39.860000000000014,7,2,8.56,NE,1685202817
419,bereda,43.2686,-7.5406,25.640000000000043,48,99,3.53,ES,1685202818
420,dali,25.7,100.1833,16.950000000000045,61,0,2.73,CN,1685202819
421,mecca,21.4267,39.8261,33.93000000000001,37,1,3.44,SA,1685202820
422,tecoanapa,16.5167,-98.75,31.03000000000003,61,94,3.17,MX,1685202821
423,meulaboh,4.1363,96.1285,25.560000000000002,86,56,1.66,ID,1685202822
424,bang mun nak,16.0278,100.3792,33.32000000000005,57,19,1.53,TH,1685202823
425,uren,57.4552,45.7852,19.77000000000004,72,96,0.71,RU,1685202824
426,cockburn town,21.4612,-71.1419,27.75,84,11,6.71,TC,1685202825
427,dingle,10.9995,122.6711,25.220000000000027,90,100,1.16,PH,1685202826
428,paoua,7.2427,16.4406,25.58000000000004,71,100,0.81,CF,1685202827
429,fallon,39.4735,-118.7774,17.180000000000007,67,20,2.06,US,1685202828
430,sept-iles,50.2001,-66.3821,20.29000000000002,32,75,4.12,CA,1685202829
431,tilichiki,60.4667,166.1,0.4900000000000091,94,99,2.07,RU,1685202830
432,plettenberg bay,-34.0527,23.3716,14.340000000000032,54,0,1.87,ZA,1685202832
433,san fernando,15.0286,120.6898,27.850000000000023,85,80,0.85,PH,1685202833
434,oktyabrskiy,54.4815,53.471,21.680000000000007,57,100,3.64,RU,1685202834
435,paita,-5.0892,-81.1144,25.450000000000045,71,67,4.89,PE,1685202835
436,pereira barreto,-20.6383,-51.1092,30.79000000000002,34,11,3.38,BR,1685202836
437,hovd,48.0056,91.6419,11.660000000000025,49,29,0.48,MN,1685202837
438,havelock,34.8791,-76.9013,17.200000000000045,95,100,9.26,US,1685202839
439,lichinga,-13.3128,35.2406,22.05000000000001,46,75,2.57,MZ,1685202840
440,assis,-22.6617,-50.4122,25.860000000000014,50,16,3.58,BR,1685202841
441,nayoro,44.3506,142.4578,12.460000000000036,89,100,2.38,JP,1685202842
442,vardo,70.3705,31.1107,6.990000000000009,42,75,6.69,NO,1685202843
443,svetlaya,46.5389,138.3297,12.29000000000002,65,100,2.5,RU,1685202844
444,pangnirtung,66.1451,-65.7125,-6.0,73,75,5.66,CA,1685202845
445,vestmannaeyjar,63.4427,-20.2734,7.550000000000011,49,0,9.77,IS,1685202846
446,veshkayma,54.05,47.1333,17.950000000000045,76,98,3.82,RU,1685202847
447,naze,28.3667,129.4833,22.510000000000048,95,100,6.35,JP,1685202848
448,fort-shevchenko,44.5086,50.263,26.900000000000034,35,93,9.14,KZ,1685202849
449,chicama,-7.8447,-79.1469,23.30000000000001,68,99,2.84,PE,1685202850
450,okha,53.5739,142.9478,0.6200000000000045,94,100,5.88,RU,1685202851
451,aripuana,-9.1667,-60.6333,33.360000000000014,41,100,1.37,BR,1685202852
452,dandong,40.1292,124.3947,15.150000000000034,93,100,2.12,CN,1685202853
453,xuddur,4.1213,43.8894,27.939999999999998,50,79,8.37,SO,1685202854
454,ternate,0.8,127.4,27.310000000000002,76,52,3.72,ID,1685202855
455,stanceni,46.9833,25.2333,15.180000000000007,64,81,3.34,RO,1685202856
456,ornes,66.8689,13.7078,5.710000000000036,89,100,6.06,NO,1685202857
457,ferkessedougou,9.6,-5.2,38.129999999999995,22,100,1.6,CI,1685202858
458,vila,42.0304,-8.1588,13.490000000000009,71,87,2.2,PT,1685202859
459,mount gambier,-37.8333,140.7667,12.100000000000023,96,100,4.08,AU,1685202861
460,tongzhou,39.9053,116.5994,19.060000000000002,82,0,2.0,CN,1685202862
461,susanville,40.4163,-120.653,16.060000000000002,74,40,1.34,US,1685202622
462,auki,-8.7676,160.7034,25.170000000000016,90,86,1.94,SB,1685202864
463,ayr,55.4627,-4.6339,16.100000000000023,77,20,6.69,GB,1685202865
464,tefe,-3.3542,-64.7114,30.060000000000002,74,40,3.09,BR,1685202866
465,balikpapan,-1.2675,116.8289,28.55000000000001,79,40,2.06,ID,1685202867
466,utrecht,52.0,5.25,22.980000000000018,43,2,0.45,NL,1685202600
467,gallup,35.5281,-108.7426,18.340000000000032,26,0,1.79,US,1685202602
468,benguela,-12.5763,13.4055,25.07000000000005,77,17,3.5,AO,1685202870
469,brandon,27.9378,-82.2859,26.78000000000003,71,0,2.06,US,1685202665
470,souillac,-20.5167,57.5167,24.210000000000036,83,75,6.17,MU,1685202877
471,tongren,27.7172,109.1853,24.160000000000025,92,0,0.92,CN,1685202822
472,lata,40.1629,-8.3327,21.620000000000005,74,100,1.58,PT,1685202879
473,klamath falls,42.2249,-121.7817,16.700000000000045,69,0,1.79,US,1685202691
474,kathu,7.9178,98.3332,30.939999999999998,99,20,6.05,TH,1685202882
475,tura,25.5198,90.2201,21.510000000000048,90,47,1.87,IN,1685202883
476,mayskiy,47.6931,40.1025,20.670000000000016,87,55,3.56,RU,1685202884
477,mokhsogollokh,61.4681,128.9203,3.8799999999999955,57,98,1.16,RU,1685202885
478,haines junction,60.7522,-137.5108,5.970000000000027,52,93,0.51,CA,1685202886
479,bucyrus,40.8084,-82.9755,22.960000000000036,45,100,2.63,US,1685202888
480,ouadda,8.0777,22.4007,20.680000000000007,91,100,0.71,CF,1685202889
481,saint-paul-les-dax,43.7272,-1.0516,30.510000000000048,34,31,4.63,FR,1685202890
482,mayor pablo lagerenza,-19.9309,-60.7718,30.07000000000005,57,92,4.83,PY,1685202891
483,karakol,42.4907,78.3936,8.28000000000003,61,85,1.88,KG,1685202892
484,gurh,24.5167,81.5167,31.78000000000003,28,62,1.58,IN,1685202893
485,fortuna,40.5982,-124.1573,13.140000000000043,96,100,0.45,US,1685202894
486,blythe,33.6103,-114.5964,28.350000000000023,38,0,0.0,US,1685202894
487,syumsi,57.1111,51.6149,20.480000000000018,73,83,2.79,RU,1685202896
488,kang,-23.6752,22.7876,22.090000000000032,27,29,2.18,BW,1685202897
489,burnie,-41.0667,145.9167,10.25,86,90,4.07,AU,1685202898
490,klaksvik,62.2266,-6.589,9.510000000000048,67,37,15.09,FO,1685202901
491,severo-kurilsk,50.6789,156.125,5.060000000000002,92,100,4.24,RU,1685202902
492,daru,-9.0763,143.2092,25.74000000000001,82,93,5.05,PG,1685202903
493,zheshart,62.0731,49.5733,14.939999999999998,73,97,2.71,RU,1685202904
494,duku,11.2361,4.9073,37.370000000000005,32,80,1.97,NG,1685202905
495,sisimiut,66.9395,-53.6735,-3.519999999999982,83,100,4.91,GL,1685202907
496,port lincoln,-34.7333,135.8667,14.870000000000005,76,100,7.75,AU,1685202908
497,harrisonville,38.6533,-94.3488,24.629999999999995,33,0,2.57,US,1685202909
498,miles city,46.4083,-105.8406,17.54000000000002,82,0,2.57,US,1685202910
499,mikkeli,61.6886,27.2723,13.410000000000025,35,0,3.09,FI,1685202911
500,chum phae,16.5443,102.0992,26.870000000000005,78,83,1.65,TH,1685202912
501,mahibadhoo,3.7833,72.9667,29.29000000000002,72,95,3.98,MV,1685202913
502,manosque,43.8288,5.7869,25.810000000000002,43,47,2.73,FR,1685202914
503,digha,21.6833,87.55,29.390000000000043,84,0,4.76,IN,1685202915
504,sonneberg,50.35,11.1667,22.53000000000003,36,0,4.15,DE,1685202917
505,afsin,38.2477,36.914,21.02000000000004,36,57,3.17,TR,1685202918
506,guanica,17.9716,-66.908,34.05000000000001,72,29,6.13,PR,1685202919
507,bathsheba,13.2167,-59.5167,30.340000000000032,74,40,7.2,BB,1685202920
508,seminole,28.7086,-81.2081,26.189999999999998,69,40,5.14,US,1685202921
509,grand gaube,-20.0064,57.6608,24.220000000000027,72,8,2.24,MU,1685202922
510,lambari,-21.9756,-45.3503,23.420000000000016,53,38,1.82,BR,1685202923
511,spasskoye,44.6108,132.7969,13.720000000000027,90,100,2.01,RU,1685202924
512,liancheng,24.0519,105.075,20.060000000000002,89,6,1.63,CN,1685202925
513,beloha,-25.1667,45.05,20.74000000000001,73,100,3.2,MG,1685202926
514,ukiah,39.1502,-123.2078,20.80000000000001,89,100,2.06,US,1685202928
515,noormarkku,61.5927,21.8685,13.879999999999995,30,0,3.09,FI,1685202929
516,treinta y tres,-33.2333,-54.3833,17.5,48,7,7.1,UY,1685202930
517,faya,18.3851,42.4509,18.29000000000002,60,97,1.08,SA,1685202931
518,dongli,23.5656,116.8194,25.99000000000001,89,75,2.0,CN,1685202932
519,chardara,41.2547,67.9692,25.660000000000025,23,0,4.24,KZ,1685202933
520,farafangana,-22.8167,47.8333,21.840000000000032,86,30,3.67,MG,1685202933
521,acajutla,13.5928,-89.8275,30.379999999999995,59,84,1.9,SV,1685202934
522,awjilah,29.1081,21.2869,25.27000000000004,41,65,9.4,LY,1685202935
523,jamtara,23.95,86.8,31.980000000000018,35,0,2.88,IN,1685202937
524,puerto madero,14.7208,-92.4215,26.510000000000048,75,100,2.52,MX,1685202938
525,hohhot,40.8106,111.6522,17.170000000000016,51,0,2.0,CN,1685202939
526,saint-francois,46.4154,3.9054,27.04000000000002,43,0,3.6,FR,1685202945
527,ulaangom,49.9811,92.0667,10.420000000000016,41,97,0.72,MN,1685202946
528,hammerfest,70.6634,23.6821,4.25,60,75,4.63,NO,1685202879
529,fiumicino,41.7675,12.2291,27.58000000000004,49,20,5.66,IT,1685202948
530,jijiga,9.35,42.8,18.54000000000002,88,79,6.25,ET,1685202950
531,mogadishu,2.0371,45.3438,26.640000000000043,75,98,5.15,SO,1685202794
532,shieli,44.1667,66.75,24.260000000000048,21,0,4.56,KZ,1685202952
533,axim,4.8699,-2.2405,28.930000000000007,74,100,5.24,GH,1685202954
534,laje,-10.1833,-40.9667,26.660000000000025,58,87,6.31,BR,1685202955
535,erdenet,49.0333,104.0833,3.5100000000000477,70,3,0.11,MN,1685202956
536,saint-augustin,51.226,-58.6502,12.960000000000036,51,100,6.68,CA,1685202957
537,konstantinovsk,47.5828,41.0922,19.58000000000004,83,74,3.44,RU,1685202958
538,aykhal,66.0,111.5,4.960000000000036,90,79,2.55,RU,1685202959
539,hobyo,5.3505,48.5268,28.410000000000025,76,39,9.39,SO,1685202960
540,noshiro,40.2039,140.0242,15.330000000000041,81,100,1.36,JP,1685202961
541,pochutla,15.7432,-96.4661,32.68000000000001,53,52,1.56,MX,1685202962
542,saint anthony,45.0205,-93.218,24.379999999999995,28,0,4.63,US,1685202964
543,necochea,-38.5473,-58.7368,11.900000000000034,52,58,8.43,AR,1685202965
544,coos bay,43.3665,-124.2179,15.730000000000018,97,100,4.12,US,1685202953
545,port blair,11.6667,92.75,30.02000000000004,79,40,1.54,IN,1685202967
546,horsham,51.064,-0.3272,22.629999999999995,49,0,5.14,GB,1685202968
547,abaete,-19.16,-45.4458,26.53000000000003,43,87,0.87,BR,1685202969
548,magistralnyy,56.1725,107.4458,6.840000000000032,58,100,2.02,RU,1685202970
549,zavallya,48.2135,30.0156,18.03000000000003,80,98,1.41,UA,1685202972
550,rio gallegos,-51.6226,-69.2181,4.03000000000003,70,0,10.8,AR,1685202973
551,los llanos de aridane,28.6585,-17.9182,21.860000000000014,71,20,4.47,ES,1685202974
552,okato,-39.2,173.8833,15.100000000000023,87,99,5.81,NZ,1685202975
553,kaka,37.3482,59.6143,29.100000000000023,11,99,2.38,TM,1685202976
554,kanigoro,-8.13,112.219,21.220000000000027,88,27,1.86,ID,1685202977
555,pingxiang,27.6167,113.85,26.560000000000002,80,13,1.2,CN,1685202978
556,karratha,-20.7377,116.8463,21.80000000000001,33,89,4.63,AU,1685202979
557,coffs harbour,-30.3,153.1333,9.520000000000039,100,0,1.03,AU,1685202980
558,salamiyah,35.0113,37.0532,28.950000000000045,24,100,5.76,SY,1685202981
559,knysna,-34.0363,23.0471,13.939999999999998,58,0,1.51,ZA,1685202982
560,zharkent,44.1628,80.0,18.660000000000025,41,98,3.99,KZ,1685202983
561,jales,-20.2689,-50.5458,29.140000000000043,38,12,2.92,BR,1685202970
562,bismil,37.8486,40.6658,29.060000000000002,31,16,2.63,TR,1685202985
563,seddon,-37.8068,144.8916,12.510000000000048,78,99,7.72,AU,1685202986
564,singleton,-32.5667,151.1833,4.220000000000027,87,0,2.57,AU,1685202987
565,idar,49.7167,7.3,23.29000000000002,41,0,1.79,DE,1685202988
566,kommunisticheskiy,61.6789,64.4819,19.03000000000003,67,87,4.64,RU,1685202989
567,vao,-22.6667,167.4833,21.060000000000002,78,46,4.27,NC,1685202990
568,mayo,38.8876,-76.5119,23.610000000000014,43,0,4.12,US,1685202988
569,coquimbo,-29.9533,-71.3436,15.850000000000023,77,0,5.14,CL,1685202696
570,victoria,22.2855,114.1577,29.0,82,16,5.81,HK,1685202993
571,kazachinskoye,57.6953,93.2761,8.879999999999995,65,100,1.66,RU,1685202994
572,christchurch,-43.5333,172.6333,10.53000000000003,81,76,1.54,NZ,1685202829
573,bemidji,47.4736,-94.8803,24.200000000000045,30,0,6.17,US,1685202996
574,leningradskiy,69.3833,178.4167,-2.7899999999999636,88,100,3.63,RU,1685202997
575,boke,10.9409,-14.2967,37.960000000000036,31,100,1.57,GN,1685202998
576,kiama,-34.6833,150.8667,8.650000000000034,69,0,2.68,AU,1685202999
577,dolores,-36.3132,-57.6792,11.730000000000018,50,0,7.56,AR,1685203000
578,mezen,65.8522,44.24,12.060000000000002,44,70,2.63,RU,1685203001
579,barcelona,41.3888,2.159,30.660000000000025,61,0,6.17,ES,1685203002
580,palatka,29.6486,-81.6376,24.010000000000048,62,80,1.79,US,1685203003
581,brae,60.3964,-1.353,9.370000000000005,73,22,12.24,GB,1685203004
582,port hardy,50.6996,-127.4199,11.100000000000023,71,40,4.12,CA,1685202747
583,mocuba,-16.8392,36.9856,20.920000000000016,61,0,3.4,MZ,1685203006
584,oranjestad,12.524,-70.027,29.970000000000027,74,40,10.29,AW,1685202786
585,guangzhou,23.1167,113.25,29.970000000000027,73,0,4.16,CN,1685202884
586,kutum,14.2,24.6667,36.56,13,33,3.69,SD,1685203009
587,sayanogorsk,53.0875,91.3997,8.03000000000003,68,94,0.95,RU,1685203010
588,narsaq,60.9167,-46.05,2.1100000000000136,85,100,1.37,GL,1685203010
589,krasnogorsk,55.8225,37.3181,19.189999999999998,37,0,7.0,RU,1685202715
590,omsukchan,62.5333,155.8,1.160000000000025,98,100,1.99,RU,1685203012
591,ginda,30.6945,78.4932,13.79000000000002,76,60,2.85,IN,1685203013
592,nantucket,41.2835,-70.0995,20.610000000000014,45,0,6.17,US,1685202747
593,reconquista,-29.15,-59.65,17.74000000000001,58,100,7.93,AR,1685203015
594,oume,35.7839,139.2431,18.810000000000002,84,0,2.06,JP,1685203017
